[
  {
    "id": "l_001",
    "nom": "Cabinet médical",
    "type": "Bureau",
    "cli": "Cabinet médical",
    "q": "Guéliz",
    "lat": 31.629,
    "lng": -8.01,
    "d": 120,
    "code": "",
    "notes": "8h00 récurrent",
    "updatedAt": "2026-03-25T00:23:15.045Z"
  },
  {
    "id": "l_002",
    "nom": "Bureau Alami",
    "type": "Bureau",
    "cli": "Alami Ecom",
    "q": "Hivernage",
    "lat": 31.6461,
    "lng": -8.063276,
    "d": 180,
    "code": "",
    "notes": "10h30 après cabinet médical",
    "updatedAt": "2026-03-24T17:15:55.605Z"
  },
  {
    "id": "l_003",
    "nom": "Appartement MM Coralia",
    "type": "Appartement MM",
    "cli": "Maison Madeleines",
    "q": "Guéliz",
    "lat": 31.6345,
    "lng": -8.016,
    "d": 90,
    "code": "",
    "notes": "11h00",
    "updatedAt": "2026-03-25T00:16:07.846Z"
  },
  {
    "id": "l_004",
    "nom": "Appartement GH La Perle",
    "type": "Appartement GH",
    "cli": "GetHost",
    "q": "Guéliz",
    "lat": 31.6308832,
    "lng": -8.00729,
    "d": 60,
    "code": "151638#",
    "notes": "Bât D, 1er ét, n°11"
  },
  {
    "id": "l_005",
    "nom": "Appartement GH Noria 3",
    "type": "Appartement GH",
    "cli": "GetHost",
    "q": "Route Casa/Noria",
    "lat": 31.679724,
    "lng": -8.0240919,
    "d": 90,
    "code": "221093#",
    "notes": "Logement n°5 RdC"
  },
  {
    "id": "l_006",
    "nom": "Appartement GH Nahla",
    "type": "Appartement GH",
    "cli": "GetHost",
    "q": "Semlalia/Guéliz",
    "lat": 31.644094,
    "lng": -8.021478,
    "d": 90,
    "code": "090222#",
    "notes": "Imm Plein Sud, 1er ét"
  },
  {
    "id": "l_007",
    "nom": "Appartement GH Lys Prestigia",
    "type": "Appartement GH",
    "cli": "GetHost",
    "q": "Agdal",
    "lat": 31.573823,
    "lng": -8.014371,
    "d": 90,
    "code": "262626#",
    "notes": "Imm 13, RdC n°1"
  },
  {
    "id": "l_008",
    "nom": "Appartement GH Razane",
    "type": "Appartement GH",
    "cli": "GetHost",
    "q": "Guéliz",
    "lat": 31.630826,
    "lng": -8.030513,
    "d": 90,
    "code": "262626#",
    "notes": "5ème étage, Imm Razane"
  },
  {
    "id": "l_009",
    "nom": "Appartement GH Duplex Elara",
    "type": "Appartement GH",
    "cli": "GetHost",
    "q": "Semlalia/Guéliz",
    "lat": 31.646927,
    "lng": -8.016572,
    "d": 120,
    "code": "262626#",
    "notes": "Rés Nour Prestige, Imm F, apt 5"
  },
  {
    "id": "l_010",
    "nom": "Appartement GH Nomade Waky",
    "type": "Appartement GH",
    "cli": "GetHost",
    "q": "Guéliz/Semlalia",
    "lat": 31.655,
    "lng": -8.01,
    "d": 90,
    "code": "",
    "notes": ""
  },
  {
    "id": "l_011",
    "nom": "GH Villa Enja",
    "type": "Villa",
    "cli": "GetHost",
    "q": "Route de l'Ourika",
    "lat": 31.5786,
    "lng": -7.9636,
    "d": 240,
    "code": "",
    "notes": "Lot 6-10 Ourika El Bouanani, Route Ourika km10"
  },
  {
    "id": "l_012",
    "nom": "Appartement Marrakea Nathalie",
    "type": "Appartement",
    "cli": "Particulier",
    "q": "Semlalia/Guéliz",
    "lat": 31.645992,
    "lng": -8.011817,
    "d": 90,
    "code": "123456789#",
    "notes": "Jnan Nizar, 2ème ét, n°11"
  },
  {
    "id": "l_013",
    "nom": "Appartement GH Amira",
    "type": "Appartement GH",
    "cli": "GetHost",
    "q": "Semlalia/Guéliz",
    "lat": 31.6308832,
    "lng": -8.00729,
    "d": 90,
    "code": "060909#",
    "notes": "53 Rue Abou Bakr Seddiq, porte 13"
  },
  {
    "id": "l_014",
    "nom": "Appartement GH Almaza",
    "type": "Appartement GH",
    "cli": "GetHost",
    "q": "Semlalia/Guéliz",
    "lat": 31.639675,
    "lng": -8.01808,
    "d": 90,
    "code": "262626#",
    "notes": "5ème ét, apt 216"
  },
  {
    "id": "l_015",
    "nom": "Appartement GH Shérazade",
    "type": "Appartement GH",
    "cli": "GetHost",
    "q": "Semlalia/Guéliz",
    "lat": 31.6356857,
    "lng": -8.0123848,
    "d": 90,
    "code": "7400",
    "notes": "Apt 32, 4ème étage"
  },
  {
    "id": "l_016",
    "nom": "Appartement GH Lotus",
    "type": "Appartement GH",
    "cli": "GetHost",
    "q": "Guéliz",
    "lat": 31.6345823,
    "lng": -8.0105514,
    "d": 90,
    "code": "1506",
    "notes": "Rés Jenan El Ali, Bât 1, 4ème ét, n°19"
  },
  {
    "id": "l_017",
    "nom": "Appartement GH Sunset",
    "type": "Appartement GH",
    "cli": "GetHost",
    "q": "Semlalia/Guéliz",
    "lat": 31.6395,
    "lng": -8.0195,
    "d": 90,
    "code": "",
    "notes": "Ménara Garden"
  },
  {
    "id": "l_018",
    "nom": "Appartement GH Noria 2",
    "type": "Appartement GH",
    "cli": "GetHost",
    "q": "Agdal",
    "lat": 31.570009,
    "lng": -8.020132,
    "d": 90,
    "code": "312268#",
    "notes": "Al Sharifiia"
  },
  {
    "id": "l_019",
    "nom": "Appartement GH Berbère",
    "type": "Appartement GH",
    "cli": "GetHost",
    "q": "Route de Fès",
    "lat": 31.660293,
    "lng": -7.989971,
    "d": 90,
    "code": "4384806#",
    "notes": "Imm C17, 3ème ét, porte 7"
  },
  {
    "id": "l_020",
    "nom": "Riad Zoraida",
    "type": "Riad",
    "cli": "CasaMichka",
    "q": "Médina",
    "lat": 31.6308,
    "lng": -7.985,
    "d": 270,
    "code": "9876",
    "notes": "11h30→16h00, Allée G7"
  },
  {
    "id": "l_021",
    "nom": "Riad Al Andalous",
    "type": "Riad",
    "cli": "CasaMichka",
    "q": "Médina",
    "lat": 31.630826,
    "lng": -8.030513,
    "d": 180,
    "code": "9876",
    "notes": "64 Allée G7"
  },
  {
    "id": "l_022",
    "nom": "Riad Zaynah",
    "type": "Riad",
    "cli": "Atlas",
    "q": "Médina",
    "lat": 31.630826,
    "lng": -8.030513,
    "d": 180,
    "code": "1984",
    "notes": "Allée G7, à côté Al Andalous"
  },
  {
    "id": "l_023",
    "nom": "Villa Bouchra",
    "type": "Villa",
    "cli": "Atlas",
    "q": "Targa",
    "lat": 31.663856,
    "lng": -8.069814,
    "d": 240,
    "code": "9876",
    "notes": "233 Amelkis 3"
  },
  {
    "id": "l_024",
    "nom": "Villa Assia",
    "type": "Villa",
    "cli": "Atlas",
    "q": "Targa",
    "lat": 31.663856,
    "lng": -8.069814,
    "d": 240,
    "code": "220906",
    "notes": "Code porte 220906"
  },
  {
    "id": "l_025",
    "nom": "Villa Yasmine",
    "type": "Villa",
    "cli": "Atlas",
    "q": "Palmeraie",
    "lat": 31.67498,
    "lng": -7.985713,
    "d": 240,
    "code": "7654",
    "notes": "Pavillon H3, apt 1"
  },
  {
    "id": "l_026",
    "nom": "Appartement Clara",
    "type": "Appartement",
    "cli": "Particulier",
    "q": "Guéliz",
    "lat": 31.6345823,
    "lng": -8.0105514,
    "d": 75,
    "code": "",
    "notes": "10 Rue Sourya, Rés Radi, 1er ét, apt 12"
  },
  {
    "id": "l_027",
    "nom": "Appartement Bilal Prestigia",
    "type": "Appartement",
    "cli": "Particulier",
    "q": "Agdal",
    "lat": 31.573265,
    "lng": -8.0151,
    "d": 120,
    "code": "311255",
    "notes": "Bât 19, apt 9, 2ème ét"
  },
  {
    "id": "l_028",
    "nom": "Appartement Atlas Jnan Awrad",
    "type": "Appartement",
    "cli": "Atlas",
    "q": "Route de Casa",
    "lat": 31.596675,
    "lng": -8.0134,
    "d": 60,
    "code": "9876",
    "notes": "Rés Elite Garden Bat A, 1er ét, apt 9"
  },
  {
    "id": "l_029",
    "nom": "Appartement GH Darna",
    "type": "Appartement GH",
    "cli": "GetHost",
    "q": "Guéliz/Victor Hugo",
    "lat": 31.6419631,
    "lng": -8.0214148,
    "d": 90,
    "code": "262626#",
    "notes": ""
  },
  {
    "id": "l_030",
    "nom": "GH Villa Berber Premium",
    "type": "Villa",
    "cli": "GetHost",
    "q": "Guéliz/Semlalia",
    "lat": 31.655,
    "lng": -8.012,
    "d": 240,
    "code": "",
    "notes": "12h15 · 1 ch double + 1 ch 2 lits + 4 serviettes piscine"
  },
  {
    "id": "l_032",
    "nom": "Bureau escales signature",
    "type": "Bureau",
    "cli": "Escales",
    "q": "Hivernage",
    "lat": 31.6461,
    "lng": -8.063276,
    "d": 480,
    "code": "",
    "notes": "9:30 a 17:30"
  },
  {
    "id": "l_031",
    "nom": "Villa Arabia",
    "type": "Villa",
    "cli": "Particulier",
    "q": "Route de l'Ourika",
    "lat": 31.505312,
    "lng": -7.945829,
    "d": 240,
    "code": "",
    "notes": ""
  }
]