[
  {
    "id": "l_001",
    "nom": "Cabinet médical",
    "type": "Bureau",
    "cli": "Cabinet médical",
    "q": "Guéliz",
    "lat": 31.629,
    "lng": -8.01,
    "d": 120,
    "code": "",
    "notes": "8h00 récurrent",
    "updatedAt": "2026-04-04T17:12:21.142Z",
    "proprietaire": "Dr"
  },
  {
    "id": "l_002",
    "nom": "Bureau Alami",
    "type": "Bureau",
    "cli": "Alami Ecom",
    "q": "Hivernage",
    "lat": 31.6461,
    "lng": -8.063276,
    "d": 120,
    "code": "",
    "notes": "10h30 après cabinet médical",
    "updatedAt": "2026-04-04T17:12:36.595Z",
    "proprietaire": "Alami"
  },
  {
    "id": "l_003",
    "nom": "Coralia",
    "type": "Appartement",
    "cli": "Maison Madeleines",
    "q": "Guéliz",
    "lat": 31.6345,
    "lng": -8.016,
    "d": 120,
    "code": "",
    "notes": "11h00",
    "updatedAt": "2026-04-04T17:12:53.619Z",
    "proprietaire": "MM"
  },
  {
    "id": "l_004",
    "nom": "Perle",
    "type": "Appartement",
    "cli": "GetHost",
    "q": "Guéliz",
    "lat": 31.6308832,
    "lng": -8.00729,
    "d": 120,
    "code": "151638#",
    "notes": "Bât D, 1er ét, n°11",
    "updatedAt": "2026-04-04T17:13:08.223Z",
    "proprietaire": "GH"
  },
  {
    "id": "l_005",
    "nom": "Escape",
    "type": "Appartement GH",
    "cli": "GetHost",
    "q": "Route Casa/Noria",
    "lat": 31.679724,
    "lng": -8.0240919,
    "d": 120,
    "code": "221093#",
    "notes": "Logement n°5 RdC",
    "updatedAt": "2026-04-04T17:13:23.139Z",
    "proprietaire": "GH"
  },
  {
    "id": "l_006",
    "nom": "Nahla",
    "type": "Appartement GH",
    "cli": "GetHost",
    "q": "Semlalia/Guéliz",
    "lat": 31.644094,
    "lng": -8.021478,
    "d": 120,
    "code": "090222#",
    "notes": "Imm Plein Sud, 1er ét",
    "updatedAt": "2026-04-04T17:13:28.689Z",
    "proprietaire": "GH"
  },
  {
    "id": "l_007",
    "nom": "Lys",
    "type": "Appartement GH",
    "cli": "GetHost",
    "q": "Agdal",
    "lat": 31.573823,
    "lng": -8.014371,
    "d": 120,
    "code": "262626#",
    "notes": "Imm 13, RdC n°1",
    "updatedAt": "2026-04-04T17:13:36.111Z",
    "proprietaire": "Gh"
  },
  {
    "id": "l_008",
    "nom": "Razane",
    "type": "Appartement GH",
    "cli": "GetHost",
    "q": "Guéliz",
    "lat": 31.630826,
    "lng": -8.030513,
    "d": 120,
    "code": "262626#",
    "notes": "5ème étage, Imm Razane",
    "updatedAt": "2026-04-04T17:13:42.565Z",
    "proprietaire": "GH"
  },
  {
    "id": "l_009",
    "nom": "Duplex Elara",
    "type": "Appartement GH",
    "cli": "GetHost",
    "q": "Semlalia/Guéliz",
    "lat": 31.646927,
    "lng": -8.016572,
    "d": 180,
    "code": "262626#",
    "notes": "Rés Nour Prestige, Imm F, apt 5",
    "updatedAt": "2026-04-04T17:13:49.410Z",
    "proprietaire": "GH"
  },
  {
    "id": "l_010",
    "nom": "Nomade",
    "type": "Appartement GH",
    "cli": "GetHost",
    "q": "Guéliz/Semlalia",
    "lat": 31.655,
    "lng": -8.01,
    "d": 240,
    "code": "",
    "notes": "",
    "updatedAt": "2026-04-04T17:14:09.889Z",
    "proprietaire": "GH"
  },
  {
    "id": "l_011",
    "nom": "Villa",
    "type": "Villa",
    "cli": "GetHost",
    "q": "Route de l'Ourika",
    "lat": 31.5786,
    "lng": -7.9636,
    "d": 240,
    "code": "",
    "notes": "Lot 6-10 Ourika El Bouanani, Route Ourika km10",
    "updatedAt": "2026-04-04T16:50:17.489Z"
  },
  {
    "id": "l_012",
    "nom": "Nathalie",
    "type": "Appartement",
    "cli": "Particulier",
    "q": "Semlalia/Guéliz",
    "lat": 31.645992,
    "lng": -8.011817,
    "d": 120,
    "code": "123456789#",
    "notes": "Jnan Nizar, 2ème ét, n°11",
    "updatedAt": "2026-04-04T17:14:33.643Z",
    "proprietaire": "MRK"
  },
  {
    "id": "l_013",
    "nom": "Amira",
    "type": "Appartement",
    "cli": "GetHost",
    "q": "Semlalia/Guéliz",
    "lat": 31.6308832,
    "lng": -8.00729,
    "d": 120,
    "code": "060909#",
    "notes": "53 Rue Abou Bakr Seddiq, porte 13",
    "proprietaire": "GH",
    "updatedAt": "2026-04-04T17:14:53.208Z"
  },
  {
    "id": "l_014",
    "nom": "Almaza",
    "type": "Appartement",
    "cli": "GetHost",
    "q": "Semlalia/Guéliz",
    "lat": 31.639675,
    "lng": -8.01808,
    "d": 120,
    "code": "262626#",
    "notes": "5ème ét, apt 216",
    "proprietaire": "GH",
    "updatedAt": "2026-04-04T17:15:13.230Z"
  },
  {
    "id": "l_015",
    "nom": "Shérazade",
    "type": "Appartement",
    "cli": "GetHost",
    "q": "Semlalia/Guéliz",
    "lat": 31.6356857,
    "lng": -8.0123848,
    "d": 120,
    "code": "7400",
    "notes": "Apt 32, 4ème étage",
    "proprietaire": "HSS",
    "updatedAt": "2026-04-04T17:15:37.827Z"
  },
  {
    "id": "l_016",
    "nom": "Lotus",
    "type": "Appartement",
    "cli": "GetHost",
    "q": "Guéliz",
    "lat": 31.6345823,
    "lng": -8.0105514,
    "d": 120,
    "code": "1506",
    "notes": "Rés Jenan El Ali, Bât 1, 4ème ét, n°19",
    "updatedAt": "2026-04-04T17:15:54.220Z",
    "proprietaire": "GH"
  },
  {
    "id": "l_017",
    "nom": "Sunset",
    "type": "Appartement",
    "cli": "GetHost",
    "q": "Semlalia/Guéliz",
    "lat": 31.6395,
    "lng": -8.0195,
    "d": 120,
    "code": "",
    "notes": "Ménara Garden",
    "proprietaire": "GH",
    "updatedAt": "2026-04-04T17:16:14.669Z"
  },
  {
    "id": "l_018",
    "nom": "Noria 2",
    "type": "Appartement",
    "cli": "GetHost",
    "q": "Agdal",
    "lat": 31.570009,
    "lng": -8.020132,
    "d": 120,
    "code": "312268#",
    "notes": "Al Sharifiia",
    "proprietaire": "GH",
    "updatedAt": "2026-04-04T17:16:30.712Z"
  },
  {
    "id": "l_019",
    "nom": "Berbère",
    "type": "Appartement",
    "cli": "GetHost",
    "q": "Route de Fès",
    "lat": 31.660293,
    "lng": -7.989971,
    "d": 120,
    "code": "4384806#",
    "notes": "Imm C17, 3ème ét, porte 7",
    "proprietaire": "GH",
    "updatedAt": "2026-04-04T17:16:42.700Z"
  },
  {
    "id": "l_020",
    "nom": "Riad Zoraida",
    "type": "Riad",
    "cli": "CasaMichka",
    "q": "Médina",
    "lat": 31.6308,
    "lng": -7.985,
    "d": 270,
    "code": "9876",
    "notes": "11h30→16h00, Allée G7"
  },
  {
    "id": "l_021",
    "nom": "Riad Al Andalous",
    "type": "Riad",
    "cli": "CasaMichka",
    "q": "Médina",
    "lat": 31.630826,
    "lng": -8.030513,
    "d": 180,
    "code": "9876",
    "notes": "64 Allée G7"
  },
  {
    "id": "l_022",
    "nom": "Riad Zaynah",
    "type": "Riad",
    "cli": "Atlas",
    "q": "Médina",
    "lat": 31.630826,
    "lng": -8.030513,
    "d": 180,
    "code": "1984",
    "notes": "Allée G7, à côté Al Andalous"
  },
  {
    "id": "l_026",
    "nom": "Appartement Clara",
    "type": "Appartement",
    "cli": "Particulier",
    "q": "Guéliz",
    "lat": 31.6345823,
    "lng": -8.0105514,
    "d": 240,
    "code": "",
    "notes": "10 Rue Sourya, Rés Radi, 1er ét, apt 12",
    "proprietaire": "CLARA",
    "lingeProprio": true,
    "updatedAt": "2026-04-04T17:17:17.586Z"
  },
  {
    "id": "l_027",
    "nom": "Appartement Bilal Prestigia",
    "type": "Appartement",
    "cli": "Particulier",
    "q": "Agdal",
    "lat": 31.573265,
    "lng": -8.0151,
    "d": 120,
    "code": "311255",
    "notes": "Bât 19, apt 9, 2ème ét",
    "proprietaire": "BLL",
    "updatedAt": "2026-04-04T17:17:37.881Z"
  },
  {
    "id": "l_029",
    "nom": "Darna",
    "type": "Appartement",
    "cli": "GetHost",
    "q": "Guéliz/Victor Hugo",
    "lat": 31.6419631,
    "lng": -8.0214148,
    "d": 90,
    "code": "262626#",
    "notes": "",
    "proprietaire": "GH",
    "updatedAt": "2026-04-04T17:17:59.102Z"
  },
  {
    "id": "l_032",
    "nom": "Bureau escales signature",
    "type": "Bureau",
    "cli": "Escales",
    "q": "Hivernage",
    "lat": 31.6461,
    "lng": -8.063276,
    "d": 480,
    "code": "",
    "notes": "9:30 a 17:30",
    "proprietaire": "ESCALE",
    "updatedAt": "2026-04-04T17:19:33.734Z"
  },
  {
    "id": "l_031",
    "nom": "Villa Arabia",
    "type": "Villa",
    "cli": "Particulier",
    "q": "Route de l'Ourika",
    "lat": 31.505312,
    "lng": -7.945829,
    "d": 240,
    "code": "",
    "notes": "",
    "proprietaire": "GH",
    "updatedAt": "2026-04-04T17:19:17.763Z"
  }
]